{
  "version": 1,
  "date": "2025-03-25T14:48:00Z",
  "stores": [
    {
      "id": 1,
      "name": "Open Food Network Australia",
      "description": "Australia's local food marketplace",
      "address": {
        "street": "123 Fake St",
        "city": "Melbourne",
        "state": "VIC",
        "zip": "3000",
        "country": "Australia",
        "position": {
          "latitude": -37.8136,
          "longitude": 144.9631
        }
      },
      "contact": {
        "phone": "+61 3 1234 5678",
        "email": "test@test.com"
      },
      "forwardUrl": "https://openfoodnetwork.org.au"
    },
    {
      "id": 2,
      "name": "Open Food Network Canada",
      "description": "Canada's local food marketplace",
      "address": {
        "street": "456 Fake St",
        "city": "Toronto",
        "state": "ON",
        "zip": "M5V 2B8",
        "country": "Canada",
        "position": {
          "latitude": 43.6532,
          "longitude": -79.3832
        }
      },
      "contact": {
        "phone": "+61 3 1234 5678",
        "email": "test@test.com"
      },
      "forwardUrl": "https://openfoodnetwork.ca"
    },
    {
      "id": 3,
      "name": "Open Food Network UK",
      "description": "United Kingdom's local food marketplace",
      "address": {
        "street": "789 Fake St",
        "city": "London",
        "state": "England",
        "zip": "SW1A 1AA",
        "country": "United Kingdom",
        "position": {
          "latitude": 51.5074,
          "longitude": -0.1278
        }
      },
      "contact": {
        "phone": "+61 3 1234 5678",
        "email": "test@test.com"
      },
      "forwardUrl": "https://openfoodnetwork.org.uk"
    },
    {
      "id": 4,
      "name": "Open Food Network USA",
      "description": "United States' local food marketplace",
      "address": {
        "street": "1010 Fake St",
        "city": "New York",
        "state": "NY",
        "zip": "10001",
        "country": "United States",
        "position": {
          "latitude": 40.7128,
          "longitude": -74.0060
        }
      },
      "contact": {
        "phone": "+61 3 1234 5678",
        "email": "test@test.com"
      },
      "forwardUrl": "https://openfoodnetwork.org"
    },
    {
      "id": 5,
      "name": "Open Food Network South Africa",
      "description": "South Africa's local food marketplace",
      "address": {
        "street": "1212 Fake St",
        "city": "Johannesburg",
        "state": "Gauteng",
        "zip": "2000",
        "country": "South Africa",
        "position": {
          "latitude": -26.2041,
          "longitude": 28.0473
        }
      },
      "contact": {
        "phone": "+61 3 1234 5678",
        "email": "test@test.com"
      },
      "forwardUrl": "https://openfoodnetwork.org.za"
    },
    {
      "id": 6,
      "name": "Open Food Network France",
      "description": "France's local food marketplace",
      "address": {
        "street": "1414 Fake St",
        "city": "Paris",
        "state": "ÃŽle-de-France",
        "zip": "75001",
        "country": "France",
        "position": {
          "latitude": 48.8566,
          "longitude": 2.3522
        }
      },
      "contact": {
        "phone": "+61 3 1234 5678",
        "email": "test@test.com"
      },
      "forwardUrl": "https://openfoodnetwork.fr"
    }
  ]
}
